[
    {
      "city": "Tokyo",
      "country": "Japan",
      "population": 37435191,
      "lat": 35.6895,
      "lng": 139.6917
    },
    {
      "city": "Delhi",
      "country": "India",
      "population": 29399141,
      "lat": 28.7041,
      "lng": 77.1025
    },
    {
      "city": "Shanghai",
      "country": "China",
      "population": 26317104,
      "lat": 31.2304,
      "lng": 121.4737
    },
    {
      "city": "Sao Paulo",
      "country": "Brazil",
      "population": 21846507,
      "lat": -23.5505,
      "lng": -46.6333
    },
    {
      "city": "Mexico City",
      "country": "Mexico",
      "population": 21671908,
      "lat": 19.4326,
      "lng": -99.1332
    },
    {
      "city": "Cairo",
      "country": "Egypt",
      "population": 20484965,
      "lat": 30.0444,
      "lng": 31.2357
    },
    {
      "city": "Mumbai",
      "country": "India",
      "population": 20411274,
      "lat": 19.076,
      "lng": 72.8777
    },
    {
      "city": "Beijing",
      "country": "China",
      "population": 20035455,
      "lat": 39.9042,
      "lng": 116.4074
    },
    {
      "city": "Dhaka",
      "country": "Bangladesh",
      "population": 19578421,
      "lat": 23.8103,
      "lng": 90.4125
    },
    {
      "city": "Osaka",
      "country": "Japan",
      "population": 19222665,
      "lat": 34.6937,
      "lng": 135.5023
    },
    {
      "city": "New York City",
      "country": "USA",
      "population": 18804000,
      "lat": 40.7128,
      "lng": -74.006
    },
    {
      "city": "Karachi",
      "country": "Pakistan",
      "population": 15400000,
      "lat": 24.8607,
      "lng": 67.0011
    },
    {
      "city": "Buenos Aires",
      "country": "Argentina",
      "population": 14967000,
      "lat": -34.6037,
      "lng": -58.3816
    },
    {
      "city": "Chongqing",
      "country": "China",
      "population": 14838000,
      "lat": 29.563,
      "lng": 106.5516
    },
    {
      "city": "Istanbul",
      "country": "Turkey",
      "population": 14729000,
      "lat": 41.0082,
      "lng": 28.9784
    },
    {
      "city": "Kolkata",
      "country": "India",
      "population": 14667000,
      "lat": 22.5726,
      "lng": 88.3639
    },
    {
      "city": "Manila",
      "country": "Philippines",
      "population": 13923452,
      "lat": 14.5995,
      "lng": 120.9842
    },
    {
      "city": "Lagos",
      "country": "Nigeria",
      "population": 13424000,
      "lat": 6.5244,
      "lng": 3.3792
    },
    {
      "city": "Rio de Janeiro",
      "country": "Brazil",
      "population": 13293000,
      "lat": -22.9068,
      "lng": -43.1729
    },
    {
      "city": "Tianjin",
      "country": "China",
      "population": 13215000,
      "lat": 39.3434,
      "lng": 117.3616
    },
    {
      "city": "Kinshasa",
      "country": "Congo",
      "population": 13165000,
      "lat": -4.4419,
      "lng": 15.2663
    },
    {
      "city": "Guangzhou",
      "country": "China",
      "population": 13080500,
      "lat": 23.1291,
      "lng": 113.2644
    },
    {
      "city": "Los Angeles",
      "country": "USA",
      "population": 12815475,
      "lat": 34.0522,
      "lng": -118.2437
    },
    {
      "city": "Moscow",
      "country": "Russia",
      "population": 12538000,
      "lat": 55.7558,
      "lng": 37.6173
    },
    {
      "city": "Shenzhen",
      "country": "China",
      "population": 12528300,
      "lat": 22.5431,
      "lng": 114.0579
    },
    {
      "city": "Lahore",
      "country": "Pakistan",
      "population": 12188000,
      "lat": 31.5497,
      "lng": 74.3436
    },
    {
      "city": "Bangalore",
      "country": "India",
      "population": 11956000,
      "lat": 12.9716,
      "lng": 77.5946
    },
    {
      "city": "Paris",
      "country": "France",
      "population": 11020000,
      "lat": 48.8566,
      "lng": 2.3522
    },
    {
      "city": "Bogota",
      "country": "Colombia",
      "population": 10777932,
      "lat": 4.711,
      "lng": -74.0721
    },
    {
      "city": "Jakarta",
      "country": "Indonesia",
      "population": 10770487,
      "lat": -6.2088,
      "lng": 106.8456
    },
    {
      "city": "Chennai",
      "country": "India",
      "population": 10435543,
      "lat": 13.0827,
      "lng": 80.2707
    },
    {
      "city": "Lima",
      "country": "Peru",
      "population": 10395683,
      "lat": -12.0464,
      "lng": -77.0428
    },
    {
      "city": "Bangkok",
      "country": "Thailand",
      "population": 10305591,
      "lat": 13.7563,
      "lng": 100.5018
    },
    {
      "city": "Hyderabad",
      "country": "India",
      "population": 9840000,
      "lat": 17.385,
      "lng": 78.4867
    },
    {
      "city": "Seoul",
      "country": "South Korea",
      "population": 9776000,
      "lat": 37.5665,
      "lng": 126.978
    },
    {
      "city": "Nagoya",
      "country": "Japan",
      "population": 9372000,
      "lat": 35.1815,
      "lng": 136.9066
    },
    {
      "city": "London",
      "country": "UK",
      "population": 9126366,
      "lat": 51.5074,
      "lng": -0.1278
    },
    {
      "city": "Chengdu",
      "country": "China",
      "population": 9008000,
      "lat": 30.5728,
      "lng": 104.0668
    },
    {
      "city": "Nanjing",
      "country": "China",
      "population": 8507400,
      "lat": 32.0603,
      "lng": 118.7969
    },
    {
      "city": "Tehran",
      "country": "Iran",
      "population": 8500600,
      "lat": 35.6892,
      "lng": 51.389
    },
    {
      "city": "Ho Chi Minh City",
      "country": "Vietnam",
      "population": 8429000,
      "lat": 10.8231,
      "lng": 106.6297
    },
    {
      "city": "Wuhan",
      "country": "China",
      "population": 8219400,
      "lat": 30.5928,
      "lng": 114.3055
    },
    {
      "city": "Hong Kong",
      "country": "China",
      "population": 7451000,
      "lat": 22.3193,
      "lng": 114.1694
    },
    {
      "city": "Foshan",
      "country": "China",
      "population": 7373000,
      "lat": 23.0215,
      "lng": 113.1214
    },
    {
      "city": "Hangzhou",
      "country": "China",
      "population": 7243000,
      "lat": 30.2741,
      "lng": 120.1551
    },
    {
      "city": "Rio de Janeiro",
      "country": "Brazil",
      "population": 7180000,
      "lat": -22.9068,
      "lng": -43.1729
    },
    {
      "city": "Belo Horizonte",
      "country": "Brazil",
      "population": 7150000,
      "lat": -19.9173,
      "lng": -43.9346
    },
    {
      "city": "Kuala Lumpur",
      "country": "Malaysia",
      "population": 7102000,
      "lat": 3.139,
      "lng": 101.6869
    },
    {
      "city": "Shijiazhuang",
      "country": "China",
      "population": 7100000,
      "lat": 38.0428,
      "lng": 114.5149
    }
  ]
  